{"linea_1": {"start": [{"name": "ESTACI\u00d3N DEL ARTE", "lat": "40.40885159837552", "long": "-3.692487271050582", "id_estacion": 15}, {"name": "ALVARADO", "lat": "40.450331975994324", "long": "-3.703314209275784", "id_estacion": 5}, {"name": "CHAMARTIN", "lat": "40.47202685297345", "long": "-3.682590109403099", "id_estacion": 261}, {"name": "SIERRA DE GUADALUPE", "lat": "40.382164250300598", "long": "-3.624717470148779", "id_estacion": 25}, {"name": "SOL", "lat": "40.416876060894019", "long": "-3.703261648575282", "id_estacion": 12}, {"name": "IGLESIA", "lat": "40.434923478284944", "long": "-3.698979992348473", "id_estacion": 8}, {"name": "BAMBU", "lat": "40.47681536116508", "long": "-3.676367441471156", "id_estacion": 262}, {"name": "TIRSO DE MOLINA", "lat": "40.412348094110165", "long": "-3.704655268799714", "id_estacion": 13}, {"name": "BUENOS AIRES", "lat": "40.391562877215762", "long": "-3.653906122983696", "id_estacion": 22}, {"name": "GRAN VIA", "lat": "40.420008279509474", "long": "-3.701804154062708", "id_estacion": 11}, {"name": "ESTRECHO", "lat": "40.454288025828227", "long": "-3.703022959949851", "id_estacion": 4}, {"name": "MIGUEL HERNANDEZ", "lat": "40.387315747056668", "long": "-3.639509900630638", "id_estacion": 24}, {"name": "LAS SUERTES", "lat": "40.363228024765938", "long": "-3.599532689728819", "id_estacion": 294}, {"name": "TRIBUNAL", "lat": "40.42618539559021", "long": "-3.70109984950459", "id_estacion": 10}, {"name": "TETUAN", "lat": "40.460551882664809", "long": "-3.698249893972328", "id_estacion": 3}, {"name": "ALTO DEL ARENAL", "lat": "40.389771012148742", "long": "-3.645216549042826", "id_estacion": 23}, {"name": "LA GAVIA", "lat": "40.370191663197467", "long": "-3.613463483075256", "id_estacion": 293}, {"name": "VALDEACEDERAS", "lat": "40.464424178598676", "long": "-3.695062037508754", "id_estacion": 2}, {"name": "PORTAZGO", "lat": "40.392664108961029", "long": "-3.658682425344429", "id_estacion": 21}, {"name": "RIOS ROSAS", "lat": "40.441975356355869", "long": "-3.701328481177294", "id_estacion": 7}, {"name": "PUENTE DE VALLECAS", "lat": "40.398192151002938", "long": "-3.669058999478586", "id_estacion": 19}, {"name": "CONGOSTO", "lat": "40.372382370366658", "long": "-3.618841350124542", "id_estacion": 27}, {"name": "BILBAO", "lat": "40.42905602410363", "long": "-3.702182065778417", "id_estacion": 9}, {"name": "VILLA DE VALLECAS", "lat": "40.379598611419055", "long": "-3.621296484882349", "id_estacion": 26}, {"name": "PINAR DE CHAMARTIN", "lat": "40.480139978150959", "long": "-3.666804481448275", "id_estacion": 263}, {"name": "PLAZA DE CASTILLA", "lat": "40.466896037310647", "long": "-3.689169587035836", "id_estacion": 1}, {"name": "PACIFICO", "lat": "40.401261789048228", "long": "-3.67513655621334", "id_estacion": 18}, {"name": "ANTON MARTIN", "lat": "40.412463565689997", "long": "-3.69937296334489", "id_estacion": 14}, {"name": "MENENDEZ PELAYO", "lat": "40.404450522263588", "long": "-3.68097941707577", "id_estacion": 17}, {"name": "ATOCHA RENFE", "lat": "40.406586814542514", "long": "-3.689378110765852", "id_estacion": 16}, {"name": "CUATRO CAMINOS", "lat": "40.44697395278304", "long": "-3.703974771978261", "id_estacion": 6}, {"name": "NUEVA NUMANCIA", "lat": "40.395538162157159", "long": "-3.664141701485669", "id_estacion": 20}], "end": [{"name": "ATOCHA RENFE", "lat": "40.406586814542514", "long": "-3.689378110765852", "id_estacion": 16}, {"name": "CUATRO CAMINOS", "lat": "40.44697395278304", "long": "-3.703974771978261", "id_estacion": 6}, {"name": "PLAZA DE CASTILLA", "lat": "40.466896037310647", "long": "-3.689169587035836", "id_estacion": 1}, {"name": "VILLA DE VALLECAS", "lat": "40.379598611419055", "long": "-3.621296484882349", "id_estacion": 26}, {"name": "TIRSO DE MOLINA", "lat": "40.412348094110165", "long": "-3.704655268799714", "id_estacion": 13}, {"name": "BILBAO", "lat": "40.42905602410363", "long": "-3.702182065778417", "id_estacion": 9}, {"name": "CHAMARTIN", "lat": "40.47202685297345", "long": "-3.682590109403099", "id_estacion": 261}, {"name": "ANTON MARTIN", "lat": "40.412463565689997", "long": "-3.69937296334489", "id_estacion": 14}, {"name": "ALTO DEL ARENAL", "lat": "40.389771012148742", "long": "-3.645216549042826", "id_estacion": 23}, {"name": "SOL", "lat": "40.416876060894019", "long": "-3.703261648575282", "id_estacion": 12}, {"name": "ALVARADO", "lat": "40.450331975994324", "long": "-3.703314209275784", "id_estacion": 5}, {"name": "SIERRA DE GUADALUPE", "lat": "40.382164250300598", "long": "-3.624717470148779", "id_estacion": 25}, {"name": "VALDECARROS", "lat": "40.360068133185166", "long": "-3.59316035499877", "id_estacion": 295}, {"name": "GRAN VIA", "lat": "40.420008279509474", "long": "-3.701804154062708", "id_estacion": 11}, {"name": "ESTRECHO", "lat": "40.454288025828227", "long": "-3.703022959949851", "id_estacion": 4}, {"name": "MIGUEL HERNANDEZ", "lat": "40.387315747056668", "long": "-3.639509900630638", "id_estacion": 24}, {"name": "LAS SUERTES", "lat": "40.363228024765938", "long": "-3.599532689728819", "id_estacion": 294}, {"name": "TETUAN", "lat": "40.460551882664809", "long": "-3.698249893972328", "id_estacion": 3}, {"name": "BUENOS AIRES", "lat": "40.391562877215762", "long": "-3.653906122983696", "id_estacion": 22}, {"name": "IGLESIA", "lat": "40.434923478284944", "long": "-3.698979992348473", "id_estacion": 8}, {"name": "NUEVA NUMANCIA", "lat": "40.395538162157159", "long": "-3.664141701485669", "id_estacion": 20}, {"name": "LA GAVIA", "lat": "40.370191663197467", "long": "-3.613463483075256", "id_estacion": 293}, {"name": "TRIBUNAL", "lat": "40.42618539559021", "long": "-3.70109984950459", "id_estacion": 10}, {"name": "CONGOSTO", "lat": "40.372382370366658", "long": "-3.618841350124542", "id_estacion": 27}, {"name": "BAMBU", "lat": "40.47681536116508", "long": "-3.676367441471156", "id_estacion": 262}, {"name": "VALDEACEDERAS", "lat": "40.464424178598676", "long": "-3.695062037508754", "id_estacion": 2}, {"name": "PUENTE DE VALLECAS", "lat": "40.398192151002938", "long": "-3.669058999478586", "id_estacion": 19}, {"name": "ESTACI\u00d3N DEL ARTE", "lat": "40.40885159837552", "long": "-3.692487271050582", "id_estacion": 15}, {"name": "PACIFICO", "lat": "40.401261789048228", "long": "-3.67513655621334", "id_estacion": 18}, {"name": "MENENDEZ PELAYO", "lat": "40.404450522263588", "long": "-3.68097941707577", "id_estacion": 17}, {"name": "RIOS ROSAS", "lat": "40.441975356355869", "long": "-3.701328481177294", "id_estacion": 7}, {"name": "PORTAZGO", "lat": "40.392664108961029", "long": "-3.658682425344429", "id_estacion": 21}]}, "linea_2": {"start": [{"name": "SEVILLA", "lat": "40.418050748124109", "long": "-3.699251138040337", "id_estacion": 34}, {"name": "MANUEL BECERRA", "lat": "40.427904173807441", "long": "-3.669258203049727", "id_estacion": 29}, {"name": "VENTAS", "lat": "40.430884498813434", "long": "-3.663658866457546", "id_estacion": 28}, {"name": "ALSACIA", "lat": "40.418292694644421", "long": "-3.623506001548666", "id_estacion": 323}, {"name": "GOYA", "lat": "40.424548389670598", "long": "-3.675910176185961", "id_estacion": 30}, {"name": "PRINCIPE DE VERGARA", "lat": "40.422944861760726", "long": "-3.680122681043693", "id_estacion": 31}, {"name": "SANTO DOMINGO", "lat": "40.421315408133182", "long": "-3.707955276656987", "id_estacion": 37}, {"name": "OPERA", "lat": "40.418092919493105", "long": "-3.709418608719679", "id_estacion": 36}, {"name": "LA ELIPA", "lat": "40.426617234977186", "long": "-3.650518913902863", "id_estacion": 260}, {"name": "LA ALMUDENA", "lat": "40.423613290680557", "long": "-3.639142330362573", "id_estacion": 322}, {"name": "SAN BERNARDO", "lat": "40.430012762660795", "long": "-3.705569933251022", "id_estacion": 39}, {"name": "AVENIDA DE GUADALAJARA", "lat": "40.422393583822718", "long": "-3.612064609681146", "id_estacion": 324}, {"name": "CANAL", "lat": "40.438412997999968", "long": "-3.704334573354305", "id_estacion": 41}, {"name": "NOVICIADO", "lat": "40.424842233578424", "long": "-3.707419042613631", "id_estacion": 38}, {"name": "SOL", "lat": "40.4168474580948", "long": "-3.703261350755212", "id_estacion": 35}, {"name": "RETIRO", "lat": "40.420306717523253", "long": "-3.686244719177841", "id_estacion": 32}, {"name": "LAS ROSAS", "lat": "40.423748431044238", "long": "-3.603305595567437", "id_estacion": 325}, {"name": "BANCO DE ESPA\u00d1A", "lat": "40.419219786114802", "long": "-3.694965105581384", "id_estacion": 33}, {"name": "QUEVEDO", "lat": "40.433217315157556", "long": "-3.704332861250257", "id_estacion": 40}], "end": [{"name": "SOL", "lat": "40.4168474580948", "long": "-3.703261350755212", "id_estacion": 35}, {"name": "GOYA", "lat": "40.424548389670598", "long": "-3.675910176185961", "id_estacion": 30}, {"name": "MANUEL BECERRA", "lat": "40.427904173807441", "long": "-3.669258203049727", "id_estacion": 29}, {"name": "LA ALMUDENA", "lat": "40.423613290680557", "long": "-3.639142330362573", "id_estacion": 322}, {"name": "PRINCIPE DE VERGARA", "lat": "40.422944861760726", "long": "-3.680122681043693", "id_estacion": 31}, {"name": "RETIRO", "lat": "40.420306717523253", "long": "-3.686244719177841", "id_estacion": 32}, {"name": "NOVICIADO", "lat": "40.424842233578424", "long": "-3.707419042613631", "id_estacion": 38}, {"name": "SANTO DOMINGO", "lat": "40.421315408133182", "long": "-3.707955276656987", "id_estacion": 37}, {"name": "VENTAS", "lat": "40.430884498813434", "long": "-3.663658866457546", "id_estacion": 28}, {"name": "LA ELIPA", "lat": "40.426617234977186", "long": "-3.650518913902863", "id_estacion": 260}, {"name": "QUEVEDO", "lat": "40.433217315157556", "long": "-3.704332861250257", "id_estacion": 40}, {"name": "ALSACIA", "lat": "40.418292694644421", "long": "-3.623506001548666", "id_estacion": 323}, {"name": "CUATRO CAMINOS", "lat": "40.446974274859556", "long": "-3.703921735042993", "id_estacion": 42}, {"name": "SAN BERNARDO", "lat": "40.430012762660795", "long": "-3.705569933251022", "id_estacion": 39}, {"name": "OPERA", "lat": "40.418092919493105", "long": "-3.709418608719679", "id_estacion": 36}, {"name": "BANCO DE ESPA\u00d1A", "lat": "40.419219786114802", "long": "-3.694965105581384", "id_estacion": 33}, {"name": "AVENIDA DE GUADALAJARA", "lat": "40.422393583822718", "long": "-3.612064609681146", "id_estacion": 324}, {"name": "SEVILLA", "lat": "40.418050748124109", "long": "-3.699251138040337", "id_estacion": 34}, {"name": "CANAL", "lat": "40.438412997999968", "long": "-3.704334573354305", "id_estacion": 41}]}, "linea_3": {"start": [{"name": "HOSPITAL 12 DE OCTUBRE", "lat": "40.375031361291015", "long": "-3.695854692444559", "id_estacion": 268}, {"name": "PLAZA DE ESPA\u00d1A", "lat": "40.423416027958062", "long": "-3.711197037580092", "id_estacion": 50}, {"name": "ARG\u00dcELLES", "lat": "40.430660930224612", "long": "-3.715962651094834", "id_estacion": 52}, {"name": "EMBAJADORES", "lat": "40.405127271162534", "long": "-3.70268049977228", "id_estacion": 46}, {"name": "PALOS DE LA FRONTERA", "lat": "40.403072283978311", "long": "-3.69423268407983", "id_estacion": 45}, {"name": "SOL", "lat": "40.416816471653732", "long": "-3.703261028116504", "id_estacion": 48}, {"name": "VILLAVERDE BAJO CRUCE", "lat": "40.35089476396152", "long": "-3.692648941813436", "id_estacion": 271}, {"name": "CIUDAD DE LOS ANGELES", "lat": "40.359585428137002", "long": "-3.693626444170663", "id_estacion": 270}, {"name": "SAN CRISTOBAL", "lat": "40.341541936009641", "long": "-3.693180299186317", "id_estacion": 272}, {"name": "LEGAZPI", "lat": "40.391154999510235", "long": "-3.695113687596018", "id_estacion": 43}, {"name": "VILLAVERDE ALTO", "lat": "40.341228656891538", "long": "-3.711990270868673", "id_estacion": 273}, {"name": "LAVAPIES", "lat": "40.408510942855933", "long": "-3.700904123200477", "id_estacion": 47}, {"name": "SAN FERMIN-ORCASUR", "lat": "40.369990930550912", "long": "-3.694176414503696", "id_estacion": 269}, {"name": "DELICIAS", "lat": "40.399904778554387", "long": "-3.694199616036338", "id_estacion": 44}, {"name": "ALMENDRALES", "lat": "40.38409352717396", "long": "-3.697881397655217", "id_estacion": 267}, {"name": "VENTURA RODRIGUEZ", "lat": "40.427087364431081", "long": "-3.713413096705454", "id_estacion": 51}, {"name": "CALLAO", "lat": "40.420136495085096", "long": "-3.705661236843412", "id_estacion": 49}], "end": [{"name": "ALMENDRALES", "lat": "40.38409352717396", "long": "-3.697881397655217", "id_estacion": 267}, {"name": "VENTURA RODRIGUEZ", "lat": "40.427087364431081", "long": "-3.713413096705454", "id_estacion": 51}, {"name": "MONCLOA", "lat": "40.435023515195581", "long": "-3.719450619240696", "id_estacion": 53}, {"name": "LAVAPIES", "lat": "40.408510942855933", "long": "-3.700904123200477", "id_estacion": 47}, {"name": "EMBAJADORES", "lat": "40.405127271162534", "long": "-3.70268049977228", "id_estacion": 46}, {"name": "CALLAO", "lat": "40.420136495085096", "long": "-3.705661236843412", "id_estacion": 49}, {"name": "CIUDAD DE LOS ANGELES", "lat": "40.359585428137002", "long": "-3.693626444170663", "id_estacion": 270}, {"name": "SAN FERMIN-ORCASUR", "lat": "40.369990930550912", "long": "-3.694176414503696", "id_estacion": 269}, {"name": "VILLAVERDE BAJO CRUCE", "lat": "40.35089476396152", "long": "-3.692648941813436", "id_estacion": 271}, {"name": "DELICIAS", "lat": "40.399904778554387", "long": "-3.694199616036338", "id_estacion": 44}, {"name": "SAN CRISTOBAL", "lat": "40.341541936009641", "long": "-3.693180299186317", "id_estacion": 272}, {"name": "SOL", "lat": "40.416816471653732", "long": "-3.703261028116504", "id_estacion": 48}, {"name": "HOSPITAL 12 DE OCTUBRE", "lat": "40.375031361291015", "long": "-3.695854692444559", "id_estacion": 268}, {"name": "PALOS DE LA FRONTERA", "lat": "40.403072283978311", "long": "-3.69423268407983", "id_estacion": 45}, {"name": "LEGAZPI", "lat": "40.391154999510235", "long": "-3.695113687596018", "id_estacion": 43}, {"name": "ARG\u00dcELLES", "lat": "40.430660930224612", "long": "-3.715962651094834", "id_estacion": 52}, {"name": "PLAZA DE ESPA\u00d1A", "lat": "40.423416027958062", "long": "-3.711197037580092", "id_estacion": 50}]}, "linea_4": {"start": [{"name": "HORTALEZA", "lat": "40.475371717959021", "long": "-3.652572611341011", "id_estacion": 264}, {"name": "ALONSO MARTINEZ", "lat": "40.427720113338651", "long": "-3.695938695233262", "id_estacion": 57}, {"name": "SAN BERNARDO", "lat": "40.429662461610036", "long": "-3.705673788588775", "id_estacion": 55}, {"name": "ALFONSO XIII", "lat": "40.448248388161019", "long": "-3.66790615299561", "id_estacion": 66}, {"name": "MAR DE CRISTAL", "lat": "40.469426033884808", "long": "-3.638322673402993", "id_estacion": 71}, {"name": "BILBAO", "lat": "40.428850304441973", "long": "-3.701138175565138", "id_estacion": 56}, {"name": "GOYA", "lat": "40.424805404817974", "long": "-3.676846142907447", "id_estacion": 61}, {"name": "VELAZQUEZ", "lat": "40.425032550864806", "long": "-3.682918148086198", "id_estacion": 60}, {"name": "COLON", "lat": "40.425419182137368", "long": "-3.69100739257143", "id_estacion": 58}, {"name": "MANOTERAS", "lat": "40.476874226693596", "long": "-3.662895475891121", "id_estacion": 265}, {"name": "SAN LORENZO", "lat": "40.474470739586948", "long": "-3.639577276564596", "id_estacion": 72}, {"name": "AVENIDA DE LA PAZ", "lat": "40.453542634899286", "long": "-3.661181999682607", "id_estacion": 67}, {"name": "ESPERANZA", "lat": "40.459447297191772", "long": "-3.645817180039627", "id_estacion": 69}, {"name": "LISTA", "lat": "40.429168520255786", "long": "-3.675409822278686", "id_estacion": 62}, {"name": "SERRANO", "lat": "40.425432159419017", "long": "-3.686630436383335", "id_estacion": 59}, {"name": "AVENIDA DE AMERICA", "lat": "40.438032577381591", "long": "-3.676639555326264", "id_estacion": 64}, {"name": "ARG\u00dcELLES", "lat": "40.430598358763966", "long": "-3.715956869727287", "id_estacion": 54}, {"name": "PROSPERIDAD", "lat": "40.444188974144545", "long": "-3.674818902992059", "id_estacion": 65}, {"name": "ARTURO SORIA", "lat": "40.455832491871497", "long": "-3.656181218097823", "id_estacion": 68}, {"name": "CANILLAS", "lat": "40.463810536980176", "long": "-3.635595463981087", "id_estacion": 70}, {"name": "PARQUE DE SANTA MARIA", "lat": "40.47711429389674", "long": "-3.645242002165628", "id_estacion": 73}, {"name": "DIEGO DE LEON", "lat": "40.434679464392659", "long": "-3.674952730077171", "id_estacion": 63}], "end": [{"name": "MANOTERAS", "lat": "40.476874226693596", "long": "-3.662895475891121", "id_estacion": 265}, {"name": "COLON", "lat": "40.425419182137368", "long": "-3.69100739257143", "id_estacion": 58}, {"name": "BILBAO", "lat": "40.428850304441973", "long": "-3.701138175565138", "id_estacion": 56}, {"name": "AVENIDA DE LA PAZ", "lat": "40.453542634899286", "long": "-3.661181999682607", "id_estacion": 67}, {"name": "SAN LORENZO", "lat": "40.474470739586948", "long": "-3.639577276564596", "id_estacion": 72}, {"name": "ALONSO MARTINEZ", "lat": "40.427720113338651", "long": "-3.695938695233262", "id_estacion": 57}, {"name": "LISTA", "lat": "40.429168520255786", "long": "-3.675409822278686", "id_estacion": 62}, {"name": "GOYA", "lat": "40.424805404817974", "long": "-3.676846142907447", "id_estacion": 61}, {"name": "SERRANO", "lat": "40.425432159419017", "long": "-3.686630436383335", "id_estacion": 59}, {"name": "PINAR DE CHAMARTIN", "lat": "40.480138484479568", "long": "-3.666761067534691", "id_estacion": 266}, {"name": "PARQUE DE SANTA MARIA", "lat": "40.47711429389674", "long": "-3.645242002165628", "id_estacion": 73}, {"name": "ARTURO SORIA", "lat": "40.455832491871497", "long": "-3.656181218097823", "id_estacion": 68}, {"name": "CANILLAS", "lat": "40.463810536980176", "long": "-3.635595463981087", "id_estacion": 70}, {"name": "DIEGO DE LEON", "lat": "40.434679464392659", "long": "-3.674952730077171", "id_estacion": 63}, {"name": "VELAZQUEZ", "lat": "40.425032550864806", "long": "-3.682918148086198", "id_estacion": 60}, {"name": "PROSPERIDAD", "lat": "40.444188974144545", "long": "-3.674818902992059", "id_estacion": 65}, {"name": "SAN BERNARDO", "lat": "40.429662461610036", "long": "-3.705673788588775", "id_estacion": 55}, {"name": "ALFONSO XIII", "lat": "40.448248388161019", "long": "-3.66790615299561", "id_estacion": 66}, {"name": "ESPERANZA", "lat": "40.459447297191772", "long": "-3.645817180039627", "id_estacion": 69}, {"name": "MAR DE CRISTAL", "lat": "40.469426033884808", "long": "-3.638322673402993", "id_estacion": 71}, {"name": "HORTALEZA", "lat": "40.475371717959021", "long": "-3.652572611341011", "id_estacion": 264}, {"name": "AVENIDA DE AMERICA", "lat": "40.438032577381591", "long": "-3.676639555326264", "id_estacion": 64}]}, "linea_5": {"start": [{"name": "CANILLEJAS", "lat": "40.449420844365704", "long": "-3.608160323120323", "id_estacion": 74}, {"name": "NU\u00d1EZ DE BALBOA", "lat": "40.432780608043757", "long": "-3.682579914483604", "id_estacion": 83}, {"name": "DIEGO DE LEON", "lat": "40.432353194272828", "long": "-3.674261712530584", "id_estacion": 82}, {"name": "RUBEN DARIO", "lat": "40.433157937209629", "long": "-3.689541598575491", "id_estacion": 84}, {"name": "CALLAO", "lat": "40.420083254396523", "long": "-3.705664776700521", "id_estacion": 88}, {"name": "PUERTA DE TOLEDO", "lat": "40.407035754461873", "long": "-3.711046450767629", "id_estacion": 91}, {"name": "EL CAPRICHO", "lat": "40.453468332704944", "long": "-3.594011657695787", "id_estacion": 253}, {"name": "CARABANCHEL", "lat": "40.387827019967979", "long": "-3.744870521041383", "id_estacion": 98}, {"name": "EL CARMEN", "lat": "40.431893292094649", "long": "-3.657572547259663", "id_estacion": 80}, {"name": "OPORTO", "lat": "40.388464763093232", "long": "-3.731323312415034", "id_estacion": 96}, {"name": "EMPALME", "lat": "40.390572557831582", "long": "-3.765347875572339", "id_estacion": 101}, {"name": "TORRE ARIAS", "lat": "40.443743296414574", "long": "-3.616994705938824", "id_estacion": 75}, {"name": "QUINTANA", "lat": "40.433584941649492", "long": "-3.647362242098322", "id_estacion": 79}, {"name": "MARQUES DE VADILLO", "lat": "40.397356290324495", "long": "-3.715960076514051", "id_estacion": 94}, {"name": "CHUECA", "lat": "40.422933178079816", "long": "-3.697616592443782", "id_estacion": 86}, {"name": "ALUCHE", "lat": "40.385628619563853", "long": "-3.76080381070444", "id_estacion": 100}, {"name": "ALAMEDA DE OSUNA", "lat": "40.457788628520461", "long": "-3.587520929043494", "id_estacion": 252}, {"name": "SUANZES", "lat": "40.440851243077667", "long": "-3.626839744177141", "id_estacion": 76}, {"name": "VENTAS", "lat": "40.430884803194914", "long": "-3.66360584172735", "id_estacion": 81}, {"name": "URGEL", "lat": "40.393351768456249", "long": "-3.723604824293663", "id_estacion": 95}, {"name": "PIRAMIDES", "lat": "40.40259816545889", "long": "-3.711377122812316", "id_estacion": 93}, {"name": "CAMPAMENTO", "lat": "40.394807757402091", "long": "-3.768128136787409", "id_estacion": 102}, {"name": "EUGENIA DE MONTIJO", "lat": "40.384385797175732", "long": "-3.751211184782822", "id_estacion": 99}, {"name": "ACACIAS", "lat": "40.403871643729907", "long": "-3.706641086075186", "id_estacion": 92}, {"name": "ALONSO MARTINEZ", "lat": "40.428282581370453", "long": "-3.695022901946698", "id_estacion": 85}, {"name": "GRAN VIA", "lat": "40.419986617735724", "long": "-3.701803930135661", "id_estacion": 87}, {"name": "CIUDAD LINEAL", "lat": "40.438048408420102", "long": "-3.638157588345499", "id_estacion": 77}, {"name": "LA LATINA", "lat": "40.411280328686878", "long": "-3.708160868519015", "id_estacion": 90}, {"name": "VISTA ALEGRE", "lat": "40.388847025757208", "long": "-3.739824550006579", "id_estacion": 97}, {"name": "OPERA", "lat": "40.418093341994087", "long": "-3.709349602705226", "id_estacion": 89}, {"name": "PUEBLO NUEVO", "lat": "40.435692838992267", "long": "-3.64282326413925", "id_estacion": 78}], "end": [{"name": "TORRE ARIAS", "lat": "40.443743296414574", "long": "-3.616994705938824", "id_estacion": 75}, {"name": "RUBEN DARIO", "lat": "40.433157937209629", "long": "-3.689541598575491", "id_estacion": 84}, {"name": "NU\u00d1EZ DE BALBOA", "lat": "40.432780608043757", "long": "-3.682579914483604", "id_estacion": 83}, {"name": "ALONSO MARTINEZ", "lat": "40.428282581370453", "long": "-3.695022901946698", "id_estacion": 85}, {"name": "OPERA", "lat": "40.418093341994087", "long": "-3.709349602705226", "id_estacion": 89}, {"name": "ACACIAS", "lat": "40.403871643729907", "long": "-3.706641086075186", "id_estacion": 92}, {"name": "CANILLEJAS", "lat": "40.449420844365704", "long": "-3.608160323120323", "id_estacion": 74}, {"name": "EUGENIA DE MONTIJO", "lat": "40.384385797175732", "long": "-3.751211184782822", "id_estacion": 99}, {"name": "VENTAS", "lat": "40.430884803194914", "long": "-3.66360584172735", "id_estacion": 81}, {"name": "VISTA ALEGRE", "lat": "40.388847025757208", "long": "-3.739824550006579", "id_estacion": 97}, {"name": "CAMPAMENTO", "lat": "40.394807757402091", "long": "-3.768128136787409", "id_estacion": 102}, {"name": "SUANZES", "lat": "40.440851243077667", "long": "-3.626839744177141", "id_estacion": 76}, {"name": "EL CARMEN", "lat": "40.431893292094649", "long": "-3.657572547259663", "id_estacion": 80}, {"name": "URGEL", "lat": "40.393351768456249", "long": "-3.723604824293663", "id_estacion": 95}, {"name": "GRAN VIA", "lat": "40.419986617735724", "long": "-3.701803930135661", "id_estacion": 87}, {"name": "EMPALME", "lat": "40.390572557831582", "long": "-3.765347875572339", "id_estacion": 101}, {"name": "EL CAPRICHO", "lat": "40.453468332704944", "long": "-3.594011657695787", "id_estacion": 253}, {"name": "CIUDAD LINEAL", "lat": "40.438048408420102", "long": "-3.638157588345499", "id_estacion": 77}, {"name": "DIEGO DE LEON", "lat": "40.432353194272828", "long": "-3.674261712530584", "id_estacion": 82}, {"name": "OPORTO", "lat": "40.388464763093232", "long": "-3.731323312415034", "id_estacion": 96}, {"name": "MARQUES DE VADILLO", "lat": "40.397356290324495", "long": "-3.715960076514051", "id_estacion": 94}, {"name": "CASA DE CAMPO", "lat": "40.403242270835875", "long": "-3.761013667626499", "id_estacion": 103}, {"name": "ALUCHE", "lat": "40.385628619563853", "long": "-3.76080381070444", "id_estacion": 100}, {"name": "PIRAMIDES", "lat": "40.40259816545889", "long": "-3.711377122812316", "id_estacion": 93}, {"name": "CHUECA", "lat": "40.422933178079816", "long": "-3.697616592443782", "id_estacion": 86}, {"name": "CALLAO", "lat": "40.420083254396523", "long": "-3.705664776700521", "id_estacion": 88}, {"name": "PUEBLO NUEVO", "lat": "40.435692838992267", "long": "-3.64282326413925", "id_estacion": 78}, {"name": "PUERTA DE TOLEDO", "lat": "40.407035754461873", "long": "-3.711046450767629", "id_estacion": 91}, {"name": "CARABANCHEL", "lat": "40.387827019967979", "long": "-3.744870521041383", "id_estacion": 98}, {"name": "LA LATINA", "lat": "40.411280328686878", "long": "-3.708160868519015", "id_estacion": 90}, {"name": "QUINTANA", "lat": "40.433584941649492", "long": "-3.647362242098322", "id_estacion": 79}]}, "linea_6": {"start": [{"name": "USERA", "lat": "40.387096693269683", "long": "-3.706895642789324", "id_estacion": 109}, {"name": "CONDE DE CASAL", "lat": "40.406967950475376", "long": "-3.670408067233978", "id_estacion": 113}, {"name": "VICENTE ALEIXANDRE", "lat": "40.446436399348549", "long": "-3.719426711968892", "id_estacion": 123}, {"name": "ARGANZUELA-PLANETARIO", "lat": "40.393102704920707", "long": "-3.688640347447094", "id_estacion": 259}, {"name": "PUERTA DEL ANGEL", "lat": "40.413898894396269", "long": "-3.727240451815426", "id_estacion": 128}, {"name": "CIUDAD UNIVERSITARIA", "lat": "40.443564676946217", "long": "-3.726784810097875", "id_estacion": 124}, {"name": "PRINCIPE PIO", "lat": "40.42106884438364", "long": "-3.720323559142259", "id_estacion": 127}, {"name": "PACIFICO", "lat": "40.402071738555954", "long": "-3.673856038411888", "id_estacion": 112}, {"name": "GUZMAN EL BUENO", "lat": "40.446366079143708", "long": "-3.712294037060567", "id_estacion": 122}, {"name": "DIEGO DE LEON", "lat": "40.432947682446056", "long": "-3.672938566772419", "id_estacion": 117}, {"name": "LEGAZPI", "lat": "40.39115775794032", "long": "-3.69505136534669", "id_estacion": 110}, {"name": "PLAZA ELIPTICA", "lat": "40.38460005540756", "long": "-3.718370557811955", "id_estacion": 108}, {"name": "MANUEL BECERRA", "lat": "40.427904479837537", "long": "-3.669205180711638", "id_estacion": 116}, {"name": "CARPETANA", "lat": "40.392701899463539", "long": "-3.740993676713557", "id_estacion": 105}, {"name": "ALTO DE EXTREMADURA", "lat": "40.409926016985082", "long": "-3.738936181572261", "id_estacion": 129}, {"name": "ARG\u00dcELLES", "lat": "40.430531839640196", "long": "-3.715956165444176", "id_estacion": 126}, {"name": "OPORTO", "lat": "40.388467519483676", "long": "-3.731264112878039", "id_estacion": 106}, {"name": "NUEVOS MINISTERIOS", "lat": "40.446621215182525", "long": "-3.692406458511457", "id_estacion": 120}, {"name": "REPUBLICA ARGENTINA", "lat": "40.443794564489998", "long": "-3.68406186705705", "id_estacion": 119}, {"name": "O'DONNELL", "lat": "40.422888424644611", "long": "-3.668595146291953", "id_estacion": 115}, {"name": "CUATRO CAMINOS", "lat": "40.446974596904568", "long": "-3.703868699286015", "id_estacion": 121}, {"name": "MONCLOA", "lat": "40.434966310871772", "long": "-3.719450010688234", "id_estacion": 125}, {"name": "SAINZ DE BARANDA", "lat": "40.41506853886662", "long": "-3.669514139418049", "id_estacion": 114}, {"name": "MENDEZ ALVARO", "lat": "40.395375599390981", "long": "-3.678141507083042", "id_estacion": 111}, {"name": "OPA\u00d1EL", "lat": "40.386904404255588", "long": "-3.723133621163613", "id_estacion": 107}, {"name": "AVENIDA DE AMERICA", "lat": "40.438035287850482", "long": "-3.676583431725225", "id_estacion": 118}], "end": [{"name": "LEGAZPI", "lat": "40.39115775794032", "long": "-3.69505136534669", "id_estacion": 110}, {"name": "SAINZ DE BARANDA", "lat": "40.41506853886662", "long": "-3.669514139418049", "id_estacion": 114}, {"name": "CIUDAD UNIVERSITARIA", "lat": "40.443564676946217", "long": "-3.726784810097875", "id_estacion": 124}, {"name": "MENDEZ ALVARO", "lat": "40.395375599390981", "long": "-3.678141507083042", "id_estacion": 111}, {"name": "ALTO DE EXTREMADURA", "lat": "40.409926016985082", "long": "-3.738936181572261", "id_estacion": 129}, {"name": "MONCLOA", "lat": "40.434966310871772", "long": "-3.719450010688234", "id_estacion": 125}, {"name": "PUERTA DEL ANGEL", "lat": "40.413898894396269", "long": "-3.727240451815426", "id_estacion": 128}, {"name": "CONDE DE CASAL", "lat": "40.406967950475376", "long": "-3.670408067233978", "id_estacion": 113}, {"name": "VICENTE ALEIXANDRE", "lat": "40.446436399348549", "long": "-3.719426711968892", "id_estacion": 123}, {"name": "AVENIDA DE AMERICA", "lat": "40.438035287850482", "long": "-3.676583431725225", "id_estacion": 118}, {"name": "ARGANZUELA-PLANETARIO", "lat": "40.393102704920707", "long": "-3.688640347447094", "id_estacion": 259}, {"name": "USERA", "lat": "40.387096693269683", "long": "-3.706895642789324", "id_estacion": 109}, {"name": "DIEGO DE LEON", "lat": "40.432947682446056", "long": "-3.672938566772419", "id_estacion": 117}, {"name": "OPORTO", "lat": "40.388467519483676", "long": "-3.731264112878039", "id_estacion": 106}, {"name": "LUCERO", "lat": "40.405099650652225", "long": "-3.745336959451509", "id_estacion": 130}, {"name": "PRINCIPE PIO", "lat": "40.42106884438364", "long": "-3.720323559142259", "id_estacion": 127}, {"name": "OPA\u00d1EL", "lat": "40.386904404255588", "long": "-3.723133621163613", "id_estacion": 107}, {"name": "CUATRO CAMINOS", "lat": "40.446974596904568", "long": "-3.703868699286015", "id_estacion": 121}, {"name": "NUEVOS MINISTERIOS", "lat": "40.446621215182525", "long": "-3.692406458511457", "id_estacion": 120}, {"name": "MANUEL BECERRA", "lat": "40.427904479837537", "long": "-3.669205180711638", "id_estacion": 116}, {"name": "GUZMAN EL BUENO", "lat": "40.446366079143708", "long": "-3.712294037060567", "id_estacion": 122}, {"name": "ARG\u00dcELLES", "lat": "40.430531839640196", "long": "-3.715956165444176", "id_estacion": 126}, {"name": "O'DONNELL", "lat": "40.422888424644611", "long": "-3.668595146291953", "id_estacion": 115}, {"name": "PACIFICO", "lat": "40.402071738555954", "long": "-3.673856038411888", "id_estacion": 112}, {"name": "PLAZA ELIPTICA", "lat": "40.38460005540756", "long": "-3.718370557811955", "id_estacion": 108}, {"name": "REPUBLICA ARGENTINA", "lat": "40.443794564489998", "long": "-3.68406186705705", "id_estacion": 119}]}, "linea_7": {"start": [{"name": "GARCIA NOBLEJAS", "lat": "40.428423190545146", "long": "-3.633299465727318", "id_estacion": 135}, {"name": "GREGORIO MARA\u00d1ON", "lat": "40.438250994428969", "long": "-3.691482862119011", "id_estacion": 142}, {"name": "PE\u00d1AGRANDE", "lat": "40.475923520249651", "long": "-3.715824157912478", "id_estacion": 150}, {"name": "CARTAGENA", "lat": "40.439337495245127", "long": "-3.672151601329782", "id_estacion": 140}, {"name": "ISLAS FILIPINAS", "lat": "40.439068206632662", "long": "-3.713728644799354", "id_estacion": 145}, {"name": "JARAMA", "lat": "40.422954804338048", "long": "-3.52549376489887", "id_estacion": 291}, {"name": "CANAL", "lat": "40.438702507945059", "long": "-3.704888988656737", "id_estacion": 144}, {"name": "PUEBLO NUEVO", "lat": "40.435658515499128", "long": "-3.642822937252169", "id_estacion": 137}, {"name": "LAS MUSAS", "lat": "40.432988127939815", "long": "-3.607879514276323", "id_estacion": 132}, {"name": "GUZMAN EL BUENO", "lat": "40.446328896938624", "long": "-3.712293644526187", "id_estacion": 146}, {"name": "SAN BLAS", "lat": "40.427991906767446", "long": "-3.615469076257758", "id_estacion": 133}, {"name": "SIMANCAS", "lat": "40.427992373025198", "long": "-3.625721672941209", "id_estacion": 134}, {"name": "AVENIDA DE AMERICA", "lat": "40.438035615574258", "long": "-3.676527279518791", "id_estacion": 141}, {"name": "ESTADIO METROPOLITANO", "lat": "40.433393484099859", "long": "-3.600153654212524", "id_estacion": 286}, {"name": "ASCAO", "lat": "40.430205530158098", "long": "-3.64105571498423", "id_estacion": 136}, {"name": "LACOMA", "lat": "40.485015026073626", "long": "-3.723045541550223", "id_estacion": 152}, {"name": "AVDA. DE LA ILUSTRACION", "lat": "40.480102611545689", "long": "-3.718398252218655", "id_estacion": 151}, {"name": "VALDEZARZA", "lat": "40.46482353283605", "long": "-3.715972126851418", "id_estacion": 148}, {"name": "COSLADA CENTRAL", "lat": "40.423736205977733", "long": "-3.561192349499656", "id_estacion": 288}, {"name": "BARRIO DE LA CONCEPCION", "lat": "40.439099399993054", "long": "-3.65200400129475", "id_estacion": 138}, {"name": "ALONSO CANO", "lat": "40.438375376110443", "long": "-3.699245643237258", "id_estacion": 143}, {"name": "FRANCOS RODRIGUEZ", "lat": "40.456481820778272", "long": "-3.712386672198295", "id_estacion": 147}, {"name": "ANTONIO MACHADO", "lat": "40.470217720390728", "long": "-3.717694855241223", "id_estacion": 149}, {"name": "HOSPITAL DEL HENARES", "lat": "40.417610018218518", "long": "-3.534534972098212", "id_estacion": 296}, {"name": "PARQUE DE LAS AVENIDAS", "lat": "40.439447602340252", "long": "-3.662970580869222", "id_estacion": 139}, {"name": "LA RAMBLA", "lat": "40.425143484139127", "long": "-3.547923833338248", "id_estacion": 289}, {"name": "BARRIO DEL PUERTO", "lat": "40.422496870095969", "long": "-3.569188470265665", "id_estacion": 287}, {"name": "SAN FERNANDO", "lat": "40.424412249660612", "long": "-3.535414522551715", "id_estacion": 290}, {"name": "HENARES", "lat": "40.417769485241237", "long": "-3.527178352790416", "id_estacion": 292}], "end": [{"name": "ASCAO", "lat": "40.430205530158098", "long": "-3.64105571498423", "id_estacion": 136}, {"name": "ALONSO CANO", "lat": "40.438375376110443", "long": "-3.699245643237258", "id_estacion": 143}, {"name": "AVDA. DE LA ILUSTRACION", "lat": "40.480102611545689", "long": "-3.718398252218655", "id_estacion": 151}, {"name": "AVENIDA DE AMERICA", "lat": "40.438035615574258", "long": "-3.676527279518791", "id_estacion": 141}, {"name": "GUZMAN EL BUENO", "lat": "40.446328896938624", "long": "-3.712293644526187", "id_estacion": 146}, {"name": "SAN FERNANDO", "lat": "40.424412249660612", "long": "-3.535414522551715", "id_estacion": 290}, {"name": "ISLAS FILIPINAS", "lat": "40.439068206632662", "long": "-3.713728644799354", "id_estacion": 145}, {"name": "BARRIO DE LA CONCEPCION", "lat": "40.439099399993054", "long": "-3.65200400129475", "id_estacion": 138}, {"name": "SAN BLAS", "lat": "40.427991906767446", "long": "-3.615469076257758", "id_estacion": 133}, {"name": "FRANCOS RODRIGUEZ", "lat": "40.456481820778272", "long": "-3.712386672198295", "id_estacion": 147}, {"name": "SIMANCAS", "lat": "40.427992373025198", "long": "-3.625721672941209", "id_estacion": 134}, {"name": "GARCIA NOBLEJAS", "lat": "40.428423190545146", "long": "-3.633299465727318", "id_estacion": 135}, {"name": "GREGORIO MARA\u00d1ON", "lat": "40.438250994428969", "long": "-3.691482862119011", "id_estacion": 142}, {"name": "LAS MUSAS", "lat": "40.432988127939815", "long": "-3.607879514276323", "id_estacion": 132}, {"name": "PUEBLO NUEVO", "lat": "40.435658515499128", "long": "-3.642822937252169", "id_estacion": 137}, {"name": "PITIS", "lat": "40.495105842375743", "long": "-3.72589123290808", "id_estacion": 154}, {"name": "LACOMA", "lat": "40.485015026073626", "long": "-3.723045541550223", "id_estacion": 152}, {"name": "ANTONIO MACHADO", "lat": "40.470217720390728", "long": "-3.717694855241223", "id_estacion": 149}, {"name": "BARRIO DEL PUERTO", "lat": "40.422496870095969", "long": "-3.569188470265665", "id_estacion": 287}, {"name": "PARQUE DE LAS AVENIDAS", "lat": "40.439447602340252", "long": "-3.662970580869222", "id_estacion": 139}, {"name": "CANAL", "lat": "40.438702507945059", "long": "-3.704888988656737", "id_estacion": 144}, {"name": "VALDEZARZA", "lat": "40.46482353283605", "long": "-3.715972126851418", "id_estacion": 148}, {"name": "PE\u00d1AGRANDE", "lat": "40.475923520249651", "long": "-3.715824157912478", "id_estacion": 150}, {"name": "HENARES", "lat": "40.417769485241237", "long": "-3.527178352790416", "id_estacion": 292}, {"name": "CARTAGENA", "lat": "40.439337495245127", "long": "-3.672151601329782", "id_estacion": 140}, {"name": "COSLADA CENTRAL", "lat": "40.423736205977733", "long": "-3.561192349499656", "id_estacion": 288}, {"name": "ESTADIO METROPOLITANO", "lat": "40.433393484099859", "long": "-3.600153654212524", "id_estacion": 286}, {"name": "LA RAMBLA", "lat": "40.425143484139127", "long": "-3.547923833338248", "id_estacion": 289}, {"name": "JARAMA", "lat": "40.422954804338048", "long": "-3.52549376489887", "id_estacion": 291}]}, "linea_8": {"start": [{"name": "PINAR DEL REY", "lat": "40.468001362073792", "long": "-3.648668360520117", "id_estacion": 258}, {"name": "NUEVOS MINISTERIOS", "lat": "40.446552669988414", "long": "-3.692405592344977", "id_estacion": 155}, {"name": "MAR DE CRISTAL", "lat": "40.469383787188725", "long": "-3.638320223220469", "id_estacion": 157}, {"name": "FERIA DE MADRID", "lat": "40.463893151313329", "long": "-3.616204682241519", "id_estacion": 158}, {"name": "COLOMBIA", "lat": "40.456339068325185", "long": "-3.676824286774815", "id_estacion": 156}, {"name": "AEROPUERTO T1 T2 T3", "lat": "40.468644236836298", "long": "-3.569538255943205", "id_estacion": 159}, {"name": "BARAJAS", "lat": "40.475774163830884", "long": "-3.582527909796367", "id_estacion": 160}], "end": [{"name": "MAR DE CRISTAL", "lat": "40.469383787188725", "long": "-3.638320223220469", "id_estacion": 157}, {"name": "COLOMBIA", "lat": "40.456339068325185", "long": "-3.676824286774815", "id_estacion": 156}, {"name": "FERIA DE MADRID", "lat": "40.463893151313329", "long": "-3.616204682241519", "id_estacion": 158}, {"name": "AEROPUERTO T1 T2 T3", "lat": "40.468644236836298", "long": "-3.569538255943205", "id_estacion": 159}, {"name": "PINAR DEL REY", "lat": "40.468001362073792", "long": "-3.648668360520117", "id_estacion": 258}, {"name": "BARAJAS", "lat": "40.475774163830884", "long": "-3.582527909796367", "id_estacion": 160}, {"name": "AEROPUERTO T4", "lat": "40.491766772325995", "long": "-3.593245597213427", "id_estacion": 285}]}, "linea_9": {"start": [{"name": "ESTRELLA", "lat": "40.411472219206487", "long": "-3.661785270760637", "id_estacion": 175}, {"name": "HERRERA ORIA", "lat": "40.484662780153023", "long": "-3.70751021303079", "id_estacion": 161}, {"name": "PIO XII", "lat": "40.463002760511309", "long": "-3.67579015001895", "id_estacion": 166}, {"name": "IBIZA", "lat": "40.418391210589782", "long": "-3.678575105526459", "id_estacion": 173}, {"name": "RIVAS FUTURA", "lat": "40.341342154053592", "long": "-3.524789012271881", "id_estacion": 300}, {"name": "VALDEBERNARDO", "lat": "40.400047129617988", "long": "-3.621559159808529", "id_estacion": 179}, {"name": "COLOMBIA", "lat": "40.457489750412357", "long": "-3.676939059402893", "id_estacion": 167}, {"name": "NU\u00d1EZ DE BALBOA", "lat": "40.430129821265709", "long": "-3.679363719455617", "id_estacion": 171}, {"name": "PUERTA DE ARGANDA", "lat": "40.40131578216117", "long": "-3.595975302947963", "id_estacion": 182}, {"name": "PACO DE LUCIA", "lat": "40.499654912051675", "long": "-3.709081480557363", "id_estacion": 345}, {"name": "RIVAS URBANIZACIONES", "lat": "40.366771502577514", "long": "-3.547275806745553", "id_estacion": 183}, {"name": "LA POVEDA", "lat": "40.319015730792842", "long": "-3.477447350588455", "id_estacion": 185}, {"name": "VINATEROS", "lat": "40.410239927799573", "long": "-3.652734207104764", "id_estacion": 176}, {"name": "ARTILLEROS", "lat": "40.405223833667499", "long": "-3.641812337774728", "id_estacion": 177}, {"name": "SAN CIPRIANO", "lat": "40.403811757459437", "long": "-3.602394049569901", "id_estacion": 181}, {"name": "AVENIDA DE AMERICA", "lat": "40.43803832871194", "long": "-3.676471152400047", "id_estacion": 170}, {"name": "RIVAS VACIAMADRID", "lat": "40.328370921892862", "long": "-3.520597520953723", "id_estacion": 184}, {"name": "PAVONES", "lat": "40.40051154957267", "long": "-3.635122556293407", "id_estacion": 178}, {"name": "PLAZA DE CASTILLA", "lat": "40.466896292393038", "long": "-3.68912665320244", "id_estacion": 164}, {"name": "MIRASIERRA", "lat": "40.491097784867534", "long": "-3.716344482299208", "id_estacion": 326}, {"name": "SAINZ DE BARANDA", "lat": "40.415028496807103", "long": "-3.669513743702635", "id_estacion": 174}, {"name": "PRINCIPE DE VERGARA", "lat": "40.424175954821017", "long": "-3.680239868999569", "id_estacion": 172}, {"name": "VICALVARO", "lat": "40.404215916403444", "long": "-3.608858826006202", "id_estacion": 180}, {"name": "BARRIO DEL PILAR", "lat": "40.476889068805583", "long": "-3.703164503841757", "id_estacion": 162}, {"name": "CONCHA ESPINA", "lat": "40.451448432622364", "long": "-3.677380122875907", "id_estacion": 168}, {"name": "VENTILLA", "lat": "40.469435376987278", "long": "-3.695883329765175", "id_estacion": 163}, {"name": "DUQUE DE PASTRANA", "lat": "40.467625851508785", "long": "-3.679170552477902", "id_estacion": 165}, {"name": "CRUZ DEL RAYO", "lat": "40.444265881103291", "long": "-3.678214109671047", "id_estacion": 169}], "end": [{"name": "VINATEROS", "lat": "40.410239927799573", "long": "-3.652734207104764", "id_estacion": 176}, {"name": "BARRIO DEL PILAR", "lat": "40.476889068805583", "long": "-3.703164503841757", "id_estacion": 162}, {"name": "COLOMBIA", "lat": "40.457489750412357", "long": "-3.676939059402893", "id_estacion": 167}, {"name": "SAINZ DE BARANDA", "lat": "40.415028496807103", "long": "-3.669513743702635", "id_estacion": 174}, {"name": "RIVAS VACIAMADRID", "lat": "40.328370921892862", "long": "-3.520597520953723", "id_estacion": 184}, {"name": "VICALVARO", "lat": "40.404215916403444", "long": "-3.608858826006202", "id_estacion": 180}, {"name": "CONCHA ESPINA", "lat": "40.451448432622364", "long": "-3.677380122875907", "id_estacion": 168}, {"name": "PRINCIPE DE VERGARA", "lat": "40.424175954821017", "long": "-3.680239868999569", "id_estacion": 172}, {"name": "RIVAS URBANIZACIONES", "lat": "40.366771502577514", "long": "-3.547275806745553", "id_estacion": 183}, {"name": "MIRASIERRA", "lat": "40.491097784867534", "long": "-3.716344482299208", "id_estacion": 326}, {"name": "RIVAS FUTURA", "lat": "40.341342154053592", "long": "-3.524789012271881", "id_estacion": 300}, {"name": "ARGANDA DEL REY", "lat": "40.303669277437002", "long": "-3.447518960780649", "id_estacion": 186}, {"name": "ARTILLEROS", "lat": "40.405223833667499", "long": "-3.641812337774728", "id_estacion": 177}, {"name": "PAVONES", "lat": "40.40051154957267", "long": "-3.635122556293407", "id_estacion": 178}, {"name": "PUERTA DE ARGANDA", "lat": "40.40131578216117", "long": "-3.595975302947963", "id_estacion": 182}, {"name": "NU\u00d1EZ DE BALBOA", "lat": "40.430129821265709", "long": "-3.679363719455617", "id_estacion": 171}, {"name": "LA POVEDA", "lat": "40.319015730792842", "long": "-3.477447350588455", "id_estacion": 185}, {"name": "VALDEBERNARDO", "lat": "40.400047129617988", "long": "-3.621559159808529", "id_estacion": 179}, {"name": "DUQUE DE PASTRANA", "lat": "40.467625851508785", "long": "-3.679170552477902", "id_estacion": 165}, {"name": "HERRERA ORIA", "lat": "40.484662780153023", "long": "-3.70751021303079", "id_estacion": 161}, {"name": "ESTRELLA", "lat": "40.411472219206487", "long": "-3.661785270760637", "id_estacion": 175}, {"name": "IBIZA", "lat": "40.418391210589782", "long": "-3.678575105526459", "id_estacion": 173}, {"name": "SAN CIPRIANO", "lat": "40.403811757459437", "long": "-3.602394049569901", "id_estacion": 181}, {"name": "VENTILLA", "lat": "40.469435376987278", "long": "-3.695883329765175", "id_estacion": 163}, {"name": "CRUZ DEL RAYO", "lat": "40.444265881103291", "long": "-3.678214109671047", "id_estacion": 169}, {"name": "PLAZA DE CASTILLA", "lat": "40.466896292393038", "long": "-3.68912665320244", "id_estacion": 164}, {"name": "PIO XII", "lat": "40.463002760511309", "long": "-3.67579015001895", "id_estacion": 166}, {"name": "AVENIDA DE AMERICA", "lat": "40.43803832871194", "long": "-3.676471152400047", "id_estacion": 170}]}, "linea_10": {"start": [{"name": "TRES OLIVOS", "lat": "40.501204627482039", "long": "-3.695202450466739", "id_estacion": 274}, {"name": "LA MORALEJA", "lat": "40.531955647346528", "long": "-3.635559522713986", "id_estacion": 279}, {"name": "PLAZA DE ESPA\u00d1A", "lat": "40.4240868846098", "long": "-3.709698711597737", "id_estacion": 197}, {"name": "RONDA DE LA COMUNICACION", "lat": "40.515534647177446", "long": "-3.662765103503244", "id_estacion": 277}, {"name": "ALONSO MARTINEZ", "lat": "40.428526028829999", "long": "-3.696431886003887", "id_estacion": 195}, {"name": "FUENCARRAL", "lat": "40.495085162407655", "long": "-3.692831231006568", "id_estacion": 187}, {"name": "PLAZA DE CASTILLA", "lat": "40.46689653414191", "long": "-3.689086104328083", "id_estacion": 190}, {"name": "LAGO", "lat": "40.416414110991504", "long": "-3.735631059373623", "id_estacion": 199}, {"name": "BATAN", "lat": "40.407860208402369", "long": "-3.753109937175953", "id_estacion": 200}, {"name": "NUEVOS MINISTERIOS", "lat": "40.446585465163459", "long": "-3.692406091632044", "id_estacion": 193}, {"name": "LAS TABLAS", "lat": "40.508330121063914", "long": "-3.669442583283461", "id_estacion": 276}, {"name": "CASA DE CAMPO", "lat": "40.403207948018853", "long": "-3.761013281083767", "id_estacion": 201}, {"name": "PRINCIPE PIO", "lat": "40.421030690465017", "long": "-3.720326270019501", "id_estacion": 198}, {"name": "CUZCO", "lat": "40.458421419278672", "long": "-3.689850751213803", "id_estacion": 191}, {"name": "SANTIAGO BERNABEU", "lat": "40.451589179525769", "long": "-3.690379346734845", "id_estacion": 192}, {"name": "JOAQUIN VILUMBRALES", "lat": "40.349848097734004", "long": "-3.807201284367282", "id_estacion": 204}, {"name": "COLONIA JARDIN", "lat": "40.396975426434246", "long": "-3.774616256196163", "id_estacion": 202}, {"name": "AVIACION ESPA\u00d1OLA", "lat": "40.383639437611237", "long": "-3.783922946439377", "id_estacion": 257}, {"name": "CHAMARTIN", "lat": "40.472103124612666", "long": "-3.682590880549975", "id_estacion": 189}, {"name": "BEGO\u00d1A", "lat": "40.480412932105367", "long": "-3.685849695579001", "id_estacion": 188}, {"name": "MARQUES DE LA VALDAVIA", "lat": "40.541023562133518", "long": "-3.637384941176687", "id_estacion": 280}, {"name": "BAUNATAL", "lat": "40.55442320714419", "long": "-3.635126023712041", "id_estacion": 282}, {"name": "GREGORIO MARA\u00d1ON", "lat": "40.437534073320819", "long": "-3.691267602842976", "id_estacion": 194}, {"name": "REYES CATOLICOS", "lat": "40.550374833665522", "long": "-3.623399410442023", "id_estacion": 283}, {"name": "MANUEL DE FALLA", "lat": "40.550479980897151", "long": "-3.646879449505686", "id_estacion": 281}, {"name": "LA GRANJA", "lat": "40.527599622362352", "long": "-3.658592087138037", "id_estacion": 278}, {"name": "HOSPITAL INFANTA SOFIA", "lat": "40.559769448196086", "long": "-3.611454733842193", "id_estacion": 284}, {"name": "CUATRO VIENTOS", "lat": "40.377706888769723", "long": "-3.791515199873567", "id_estacion": 203}, {"name": "TRIBUNAL", "lat": "40.425995196780413", "long": "-3.702077748836003", "id_estacion": 196}, {"name": "MONTECARMELO", "lat": "40.505252159110974", "long": "-3.695750695056381", "id_estacion": 275}], "end": [{"name": "FUENCARRAL", "lat": "40.495085162407655", "long": "-3.692831231006568", "id_estacion": 187}, {"name": "LA GRANJA", "lat": "40.527599622362352", "long": "-3.658592087138037", "id_estacion": 278}, {"name": "PRINCIPE PIO", "lat": "40.421030690465017", "long": "-3.720326270019501", "id_estacion": 198}, {"name": "LAS TABLAS", "lat": "40.508330121063914", "long": "-3.669442583283461", "id_estacion": 276}, {"name": "TRIBUNAL", "lat": "40.425995196780413", "long": "-3.702077748836003", "id_estacion": 196}, {"name": "BEGO\u00d1A", "lat": "40.480412932105367", "long": "-3.685849695579001", "id_estacion": 188}, {"name": "CUZCO", "lat": "40.458421419278672", "long": "-3.689850751213803", "id_estacion": 191}, {"name": "BATAN", "lat": "40.407860208402369", "long": "-3.753109937175953", "id_estacion": 200}, {"name": "CASA DE CAMPO", "lat": "40.403207948018853", "long": "-3.761013281083767", "id_estacion": 201}, {"name": "GREGORIO MARA\u00d1ON", "lat": "40.437534073320819", "long": "-3.691267602842976", "id_estacion": 194}, {"name": "MONTECARMELO", "lat": "40.505252159110974", "long": "-3.695750695056381", "id_estacion": 275}, {"name": "COLONIA JARDIN", "lat": "40.396975426434246", "long": "-3.774616256196163", "id_estacion": 202}, {"name": "LAGO", "lat": "40.416414110991504", "long": "-3.735631059373623", "id_estacion": 199}, {"name": "SANTIAGO BERNABEU", "lat": "40.451589179525769", "long": "-3.690379346734845", "id_estacion": 192}, {"name": "NUEVOS MINISTERIOS", "lat": "40.446585465163459", "long": "-3.692406091632044", "id_estacion": 193}, {"name": "PUERTA DEL SUR", "lat": "40.345242874276799", "long": "-3.812110735047453", "id_estacion": 205}, {"name": "AVIACION ESPA\u00d1OLA", "lat": "40.383639437611237", "long": "-3.783922946439377", "id_estacion": 257}, {"name": "CUATRO VIENTOS", "lat": "40.377706888769723", "long": "-3.791515199873567", "id_estacion": 203}, {"name": "PLAZA DE CASTILLA", "lat": "40.46689653414191", "long": "-3.689086104328083", "id_estacion": 190}, {"name": "CHAMARTIN", "lat": "40.472103124612666", "long": "-3.682590880549975", "id_estacion": 189}, {"name": "LA MORALEJA", "lat": "40.531955647346528", "long": "-3.635559522713986", "id_estacion": 279}, {"name": "MANUEL DE FALLA", "lat": "40.550479980897151", "long": "-3.646879449505686", "id_estacion": 281}, {"name": "ALONSO MARTINEZ", "lat": "40.428526028829999", "long": "-3.696431886003887", "id_estacion": 195}, {"name": "BAUNATAL", "lat": "40.55442320714419", "long": "-3.635126023712041", "id_estacion": 282}, {"name": "MARQUES DE LA VALDAVIA", "lat": "40.541023562133518", "long": "-3.637384941176687", "id_estacion": 280}, {"name": "RONDA DE LA COMUNICACION", "lat": "40.515534647177446", "long": "-3.662765103503244", "id_estacion": 277}, {"name": "REYES CATOLICOS", "lat": "40.550374833665522", "long": "-3.623399410442023", "id_estacion": 283}, {"name": "JOAQUIN VILUMBRALES", "lat": "40.349848097734004", "long": "-3.807201284367282", "id_estacion": 204}, {"name": "PLAZA DE ESPA\u00d1A", "lat": "40.4240868846098", "long": "-3.709698711597737", "id_estacion": 197}, {"name": "TRES OLIVOS", "lat": "40.501204627482039", "long": "-3.695202450466739", "id_estacion": 274}]}, "linea_11": {"start": [{"name": "ABRANTES", "lat": "40.380833614731245", "long": "-3.727900249121708", "id_estacion": 207}, {"name": "SAN FRANCISCO", "lat": "40.37359884105576", "long": "-3.739102929190019", "id_estacion": 254}, {"name": "LA PESETA", "lat": "40.364224011811579", "long": "-3.756902710588123", "id_estacion": 256}, {"name": "PLAZA ELIPTICA", "lat": "40.384600790382066", "long": "-3.718252093606752", "id_estacion": 206}, {"name": "CARABANCHEL ALTO", "lat": "40.372002421685401", "long": "-3.751906344267269", "id_estacion": 255}, {"name": "PAN BENDITO", "lat": "40.375868636656733", "long": "-3.734168856530466", "id_estacion": 208}], "end": [{"name": "PAN BENDITO", "lat": "40.375868636656733", "long": "-3.734168856530466", "id_estacion": 208}, {"name": "CARABANCHEL ALTO", "lat": "40.372002421685401", "long": "-3.751906344267269", "id_estacion": 255}, {"name": "LA FORTUNA", "lat": "40.357953128926525", "long": "-3.777825849896004", "id_estacion": 305}, {"name": "ABRANTES", "lat": "40.380833614731245", "long": "-3.727900249121708", "id_estacion": 207}, {"name": "LA PESETA", "lat": "40.364224011811579", "long": "-3.756902710588123", "id_estacion": 256}, {"name": "SAN FRANCISCO", "lat": "40.37359884105576", "long": "-3.739102929190019", "id_estacion": 254}]}, "linea_12": {"start": [{"name": "PARQUE OESTE", "lat": "40.345894380413725", "long": "-3.849338616599969", "id_estacion": 212}, {"name": "PRADILLO", "lat": "40.321676964744668", "long": "-3.864889402970309", "id_estacion": 215}, {"name": "HOSPITAL DE FUENLABRADA", "lat": "40.285755485877637", "long": "-3.816416808685618", "id_estacion": 219}, {"name": "LEGANES CENTRAL", "lat": "40.328985230945548", "long": "-3.771536996688428", "id_estacion": 235}, {"name": "FUENLABRADA CENTRAL", "lat": "40.282675775140497", "long": "-3.798906900782018", "id_estacion": 221}, {"name": "CONSERVATORIO", "lat": "40.293243846316578", "long": "-3.745761040443378", "id_estacion": 224}, {"name": "MANUELA MALASA\u00d1A", "lat": "40.309030055836459", "long": "-3.864021197226151", "id_estacion": 217}, {"name": "PARQUE EUROPA", "lat": "40.285175696495507", "long": "-3.80632299228354", "id_estacion": 220}, {"name": "JULIAN BESTEIRO", "lat": "40.334749107830561", "long": "-3.75265895099191", "id_estacion": 232}, {"name": "UNIVERSIDAD REY JUAN CARLOS", "lat": "40.335122976598605", "long": "-3.872179606424482", "id_estacion": 213}, {"name": "LOS ESPARTALES", "lat": "40.324227014937343", "long": "-3.718197864524398", "id_estacion": 229}, {"name": "PARQUE DE LOS ESTADOS", "lat": "40.286835800532621", "long": "-3.786974043457501", "id_estacion": 222}, {"name": "EL CARRASCAL", "lat": "40.336638243777507", "long": "-3.740184882914837", "id_estacion": 231}, {"name": "ALONSO DE MENDOZA", "lat": "40.300813961926536", "long": "-3.736636971712462", "id_estacion": 225}, {"name": "JUAN DE LA CIERVA", "lat": "40.31180236485632", "long": "-3.722240122704442", "id_estacion": 227}, {"name": "EL CASAR", "lat": "40.318623157885447", "long": "-3.709854042300059", "id_estacion": 228}, {"name": "HOSPITAL SEVERO OCHOA", "lat": "40.321770270088287", "long": "-3.767973047304618", "id_estacion": 234}, {"name": "LORANCA", "lat": "40.296812664055288", "long": "-3.837683457120192", "id_estacion": 218}, {"name": "ALCORCON CENTRAL", "lat": "40.350084340279416", "long": "-3.831778620631979", "id_estacion": 211}, {"name": "MOSTOLES CENTRAL", "lat": "40.328500218331541", "long": "-3.863542175638656", "id_estacion": 214}, {"name": "CASA DEL RELOJ", "lat": "40.326602721384234", "long": "-3.75942499130863", "id_estacion": 233}, {"name": "GETAFE CENTRAL", "lat": "40.309927909041662", "long": "-3.734025028929001", "id_estacion": 226}, {"name": "HOSPITAL DE MOSTOLES", "lat": "40.316524281645606", "long": "-3.874712477719213", "id_estacion": 216}, {"name": "ARROYO CULEBRO", "lat": "40.288741769149418", "long": "-3.756823356667385", "id_estacion": 223}, {"name": "EL BERCIAL", "lat": "40.329072367482894", "long": "-3.729633180489337", "id_estacion": 230}, {"name": "PARQUE LISBOA", "lat": "40.349687281522193", "long": "-3.821195732552155", "id_estacion": 210}], "end": [{"name": "UNIVERSIDAD REY JUAN CARLOS", "lat": "40.335122976598605", "long": "-3.872179606424482", "id_estacion": 213}, {"name": "HOSPITAL DE MOSTOLES", "lat": "40.316524281645606", "long": "-3.874712477719213", "id_estacion": 216}, {"name": "PARQUE EUROPA", "lat": "40.285175696495507", "long": "-3.80632299228354", "id_estacion": 220}, {"name": "SAN NICASIO", "lat": "40.336163147895952", "long": "-3.775873625300736", "id_estacion": 236}, {"name": "PARQUE DE LOS ESTADOS", "lat": "40.286835800532621", "long": "-3.786974043457501", "id_estacion": 222}, {"name": "ALONSO DE MENDOZA", "lat": "40.300813961926536", "long": "-3.736636971712462", "id_estacion": 225}, {"name": "LORANCA", "lat": "40.296812664055288", "long": "-3.837683457120192", "id_estacion": 218}, {"name": "FUENLABRADA CENTRAL", "lat": "40.282675775140497", "long": "-3.798906900782018", "id_estacion": 221}, {"name": "CASA DEL RELOJ", "lat": "40.326602721384234", "long": "-3.75942499130863", "id_estacion": 233}, {"name": "MOSTOLES CENTRAL", "lat": "40.328500218331541", "long": "-3.863542175638656", "id_estacion": 214}, {"name": "EL BERCIAL", "lat": "40.329072367482894", "long": "-3.729633180489337", "id_estacion": 230}, {"name": "ARROYO CULEBRO", "lat": "40.288741769149418", "long": "-3.756823356667385", "id_estacion": 223}, {"name": "JULIAN BESTEIRO", "lat": "40.334749107830561", "long": "-3.75265895099191", "id_estacion": 232}, {"name": "GETAFE CENTRAL", "lat": "40.309927909041662", "long": "-3.734025028929001", "id_estacion": 226}, {"name": "EL CASAR", "lat": "40.318623157885447", "long": "-3.709854042300059", "id_estacion": 228}, {"name": "LOS ESPARTALES", "lat": "40.324227014937343", "long": "-3.718197864524398", "id_estacion": 229}, {"name": "LEGANES CENTRAL", "lat": "40.328985230945548", "long": "-3.771536996688428", "id_estacion": 235}, {"name": "HOSPITAL DE FUENLABRADA", "lat": "40.285755485877637", "long": "-3.816416808685618", "id_estacion": 219}, {"name": "PARQUE OESTE", "lat": "40.345894380413725", "long": "-3.849338616599969", "id_estacion": 212}, {"name": "PRADILLO", "lat": "40.321676964744668", "long": "-3.864889402970309", "id_estacion": 215}, {"name": "HOSPITAL SEVERO OCHOA", "lat": "40.321770270088287", "long": "-3.767973047304618", "id_estacion": 234}, {"name": "JUAN DE LA CIERVA", "lat": "40.31180236485632", "long": "-3.722240122704442", "id_estacion": 227}, {"name": "MANUELA MALASA\u00d1A", "lat": "40.309030055836459", "long": "-3.864021197226151", "id_estacion": 217}, {"name": "CONSERVATORIO", "lat": "40.293243846316578", "long": "-3.745761040443378", "id_estacion": 224}, {"name": "EL CARRASCAL", "lat": "40.336638243777507", "long": "-3.740184882914837", "id_estacion": 231}, {"name": "ALCORCON CENTRAL", "lat": "40.350084340279416", "long": "-3.831778620631979", "id_estacion": 211}]}}
